[
    {
        "id": 5,
        "country": "US",
        "state": "WA",
        "timezone": "America/Los_Angeles",
        "weather_network": "AgWeatherNet",
        "name": "Carlson",
        "elevation": 1494,
        "lat": 46.14314,
        "lng": -119.46098,
        "network_id": 100059
    },
    {
        "id": 6,
        "country": "US",
        "state": "WA",
        "timezone": "America/Los_Angeles",
        "weather_network": "AgWeatherNet",
        "name": "Paterson.E",
        "elevation": 424,
        "lat": 45.93907,
        "lng": -119.48771,
        "network_id": 100062
    },
    {
        "id": 13,
        "country": "US",
        "state": "WA",
        "timezone": "America/Los_Angeles",
        "weather_network": "AgWeatherNet",
        "name": "Finley",
        "elevation": 495,
        "lat": 46.1395,
        "lng": -119.05928,
        "network_id": 100113
    },
    {
        "id": 14,
        "country": "US",
        "state": "WA",
        "timezone": "America/Los_Angeles",
        "weather_network": "AgWeatherNet",
        "name": "Benton.E",
        "elevation": 682,
        "lat": 46.27573,
        "lng": -119.45448,
        "network_id": 100114
    },
    {
        "id": 21,
        "country": "US",
        "state": "WA",
        "timezone": "America/Los_Angeles",
        "weather_network": "AgWeatherNet",
        "name": "Pasco",
        "elevation": 404,
        "lat": 46.252855,
        "lng": -119.127361,
        "network_id": 100147
    },
    {
        "id": 26,
        "country": "US",
        "state": "WA",
        "timezone": "America/Los_Angeles",
        "weather_network": "AgWeatherNet",
        "name": "Prosser.NE",
        "elevation": 827,
        "lat": 46.25059,
        "lng": -119.73914,
        "network_id": 110029
    },
    {
        "id": 30,
        "country": "US",
        "state": "WA",
        "timezone": "America/Los_Angeles",
        "weather_network": "AgWeatherNet",
        "name": "Paterson.W",
        "elevation": 591,
        "lat": 45.937,
        "lng": -119.662584,
        "network_id": 300026
    },
    {
        "id": 34,
        "country": "US",
        "state": "WA",
        "timezone": "America/Los_Angeles",
        "weather_network": "AgWeatherNet",
        "name": "Ritzville",
        "elevation": 1815,
        "lat": 47.1414,
        "lng": -118.47273,
        "network_id": 300030
    },
    {
        "id": 43,
        "country": "US",
        "state": "WA",
        "timezone": "America/Los_Angeles",
        "weather_network": "AgWeatherNet",
        "name": "Mesa.SE",
        "elevation": 765,
        "lat": 46.53175,
        "lng": -119.00253,
        "network_id": 300047
    },
    {
        "id": 44,
        "country": "US",
        "state": "WA",
        "timezone": "America/Los_Angeles",
        "weather_network": "AgWeatherNet",
        "name": "Green Bluff",
        "elevation": 2385,
        "lat": 47.81469,
        "lng": -117.29939,
        "network_id": 300048
    },
    {
        "id": 50,
        "country": "US",
        "state": "WA",
        "timezone": "America/Los_Angeles",
        "weather_network": "AgWeatherNet",
        "name": "McClure",
        "elevation": 2446,
        "lat": 46.3762579,
        "lng": -119.724321,
        "network_id": 300117
    },
    {
        "id": 54,
        "country": "US",
        "state": "WA",
        "timezone": "America/Los_Angeles",
        "weather_network": "AgWeatherNet",
        "name": "Hatton",
        "elevation": 1290,
        "lat": 46.79311,
        "lng": -118.85917,
        "network_id": 300132
    },
    {
        "id": 55,
        "country": "US",
        "state": "WA",
        "timezone": "America/Los_Angeles",
        "weather_network": "AgWeatherNet",
        "name": "College.Pl",
        "elevation": 738,
        "lat": 46.027534,
        "lng": -118.399843,
        "network_id": 300133
    },
    {
        "id": 58,
        "country": "US",
        "state": "WA",
        "timezone": "America/Los_Angeles",
        "weather_network": "AgWeatherNet",
        "name": "LaCrosse",
        "elevation": 1485,
        "lat": 46.85589,
        "lng": -117.84926,
        "network_id": 300201
    },
    {
        "id": 68,
        "country": "US",
        "state": "WA",
        "timezone": "America/Los_Angeles",
        "weather_network": "AgWeatherNet",
        "name": "Grayland",
        "elevation": 21,
        "lat": 46.7872,
        "lng": -124.07935,
        "network_id": 300213
    },
    {
        "id": 70,
        "country": "US",
        "state": "WA",
        "timezone": "America/Los_Angeles",
        "weather_network": "AgWeatherNet",
        "name": "Wallula.SW",
        "elevation": 531,
        "lat": 45.9766416,
        "lng": -119.031488,
        "network_id": 300215
    },
    {
        "id": 73,
        "country": "US",
        "state": "WA",
        "timezone": "America/Los_Angeles",
        "weather_network": "AgWeatherNet",
        "name": "Azwell",
        "elevation": 810,
        "lat": 47.93034,
        "lng": -119.88001,
        "network_id": 300218
    },
    {
        "id": 74,
        "country": "US",
        "state": "WA",
        "timezone": "America/Los_Angeles",
        "weather_network": "AgWeatherNet",
        "name": "Addy",
        "elevation": 1707,
        "lat": 48.31755,
        "lng": -117.83002,
        "network_id": 300219
    },
    {
        "id": 89,
        "country": "US",
        "state": "WA",
        "timezone": "America/Los_Angeles",
        "weather_network": "AgWeatherNet",
        "name": "Konnowac",
        "elevation": 868,
        "lat": 46.471041667,
        "lng": -120.379263889,
        "network_id": 310027
    },
    {
        "id": 94,
        "country": "US",
        "state": "WA",
        "timezone": "America/Los_Angeles",
        "weather_network": "AgWeatherNet",
        "name": "Mabton.E",
        "elevation": 690,
        "lat": 46.1992,
        "lng": -119.93,
        "network_id": 310089
    },
    {
        "id": 95,
        "country": "US",
        "state": "WA",
        "timezone": "America/Los_Angeles",
        "weather_network": "AgWeatherNet",
        "name": "Puyallup",
        "elevation": 34,
        "lat": 47.19296,
        "lng": -122.32723,
        "network_id": 310102
    },
    {
        "id": 101,
        "country": "US",
        "state": "WA",
        "timezone": "America/Los_Angeles",
        "weather_network": "AgWeatherNet",
        "name": "Naches",
        "elevation": 1369,
        "lat": 46.70438,
        "lng": -120.65873,
        "network_id": 310126
    },
    {
        "id": 108,
        "country": "US",
        "state": "WA",
        "timezone": "America/Los_Angeles",
        "weather_network": "AgWeatherNet",
        "name": "Sunside.NE",
        "elevation": 1109,
        "lat": 46.35684,
        "lng": -119.90955,
        "network_id": 310139
    },
    {
        "id": 111,
        "country": "US",
        "state": "WA",
        "timezone": "America/Los_Angeles",
        "weather_network": "AgWeatherNet",
        "name": "RoyalCty.W",
        "elevation": 1529,
        "lat": 46.971727,
        "lng": -119.834552,
        "network_id": 320098
    },
    {
        "id": 113,
        "country": "US",
        "state": "WA",
        "timezone": "America/Los_Angeles",
        "weather_network": "AgWeatherNet",
        "name": "Radar.Hill",
        "elevation": 1081,
        "lat": 46.71866,
        "lng": -119.2382,
        "network_id": 330022
    },
    {
        "id": 114,
        "country": "US",
        "state": "WA",
        "timezone": "America/Los_Angeles",
        "weather_network": "AgWeatherNet",
        "name": "Frenchman",
        "elevation": 1256,
        "lat": 47.01547,
        "lng": -119.86922,
        "network_id": 330023
    },
    {
        "id": 120,
        "country": "US",
        "state": "WA",
        "timezone": "America/Los_Angeles",
        "weather_network": "AgWeatherNet",
        "name": "Davenport",
        "elevation": 2468,
        "lat": 47.656594,
        "lng": -118.132094,
        "network_id": 330029
    },
    {
        "id": 121,
        "country": "US",
        "state": "WA",
        "timezone": "America/Los_Angeles",
        "weather_network": "AgWeatherNet",
        "name": "DesertAire",
        "elevation": 608,
        "lat": 46.709288,
        "lng": -119.917337,
        "network_id": 330030
    },
    {
        "id": 123,
        "country": "US",
        "state": "WA",
        "timezone": "America/Los_Angeles",
        "weather_network": "AgWeatherNet",
        "name": "Chelan",
        "elevation": 1255,
        "lat": 47.83672,
        "lng": -120.08779,
        "network_id": 330035
    },
    {
        "id": 128,
        "country": "US",
        "state": "WA",
        "timezone": "America/Los_Angeles",
        "weather_network": "AgWeatherNet",
        "name": "Royal City East",
        "elevation": 1120,
        "lat": 46.91521,
        "lng": -119.5108,
        "network_id": 330041
    },
    {
        "id": 130,
        "country": "US",
        "state": "WA",
        "timezone": "America/Los_Angeles",
        "weather_network": "AgWeatherNet",
        "name": "Broadview",
        "elevation": 1492,
        "lat": 46.9661,
        "lng": -120.5018,
        "network_id": 330043
    },
    {
        "id": 132,
        "country": "US",
        "state": "WA",
        "timezone": "America/Los_Angeles",
        "weather_network": "AgWeatherNet",
        "name": "Waterville",
        "elevation": 3102,
        "lat": 47.72139,
        "lng": -120.07187,
        "network_id": 330046
    },
    {
        "id": 136,
        "country": "US",
        "state": "WA",
        "timezone": "America/Los_Angeles",
        "weather_network": "AgWeatherNet",
        "name": "Quincy",
        "elevation": 1486,
        "lat": 47.225451,
        "lng": -119.956826,
        "network_id": 330073
    },
    {
        "id": 138,
        "country": "US",
        "state": "WA",
        "timezone": "America/Los_Angeles",
        "weather_network": "AgWeatherNet",
        "name": "Orondo",
        "elevation": 890,
        "lat": 47.56665,
        "lng": -120.24554,
        "network_id": 330078
    },
    {
        "id": 139,
        "country": "US",
        "state": "WA",
        "timezone": "America/Los_Angeles",
        "weather_network": "AgWeatherNet",
        "name": "Seattle",
        "elevation": 30,
        "lat": 47.657029,
        "lng": -122.289082,
        "network_id": 330092
    },
    {
        "id": 146,
        "country": "US",
        "state": "WA",
        "timezone": "America/Los_Angeles",
        "weather_network": "AgWeatherNet",
        "name": "Mattawa.E",
        "elevation": 851,
        "lat": 46.701059,
        "lng": -119.799642,
        "network_id": 330121
    },
    {
        "id": 148,
        "country": "US",
        "state": "WA",
        "timezone": "America/Los_Angeles",
        "weather_network": "AgWeatherNet",
        "name": "Moses.Lake",
        "elevation": 1115,
        "lat": 47.00448,
        "lng": -119.23822,
        "network_id": 330127
    },
    {
        "id": 149,
        "country": "US",
        "state": "WA",
        "timezone": "America/Los_Angeles",
        "weather_network": "AgWeatherNet",
        "name": "Wenatchee",
        "elevation": 815,
        "lat": 47.4393578,
        "lng": -120.3490887,
        "network_id": 330141
    },
    {
        "id": 153,
        "country": "US",
        "state": "WA",
        "timezone": "America/Los_Angeles",
        "weather_network": "AgWeatherNet",
        "name": "Almira",
        "elevation": 2650,
        "lat": 47.866805,
        "lng": -118.894399,
        "network_id": 330150
    },
    {
        "id": 156,
        "country": "US",
        "state": "WA",
        "timezone": "America/Los_Angeles",
        "weather_network": "AgWeatherNet",
        "name": "Tonasket.S",
        "elevation": 1169,
        "lat": 48.68062,
        "lng": -119.46087,
        "network_id": 330157
    },
    {
        "id": 167,
        "country": "US",
        "state": "WA",
        "timezone": "America/Los_Angeles",
        "weather_network": "AgWeatherNet",
        "name": "Malott",
        "elevation": 1329,
        "lat": 48.30471,
        "lng": -119.68375,
        "network_id": 330173
    },
    {
        "id": 211,
        "country": "US",
        "state": "WA",
        "timezone": "America/Los_Angeles",
        "weather_network": "AgWeatherNet",
        "name": "Dallesport",
        "elevation": 220,
        "lat": 45.63043,
        "lng": -121.13236,
        "network_id": 100000
    },
    {
        "id": 229,
        "country": "US",
        "state": "WA",
        "timezone": "America/Los_Angeles",
        "weather_network": "AgWeatherNet",
        "name": "Ellisforde",
        "elevation": 946,
        "lat": 48.7927356,
        "lng": -119.3970188,
        "network_id": 100016
    },
    {
        "id": 274,
        "country": "US",
        "state": "WA",
        "timezone": "America/Los_Angeles",
        "weather_network": "AgWeatherNet",
        "name": "Carlton.S",
        "elevation": 1351,
        "lat": 48.2040757,
        "lng": -120.1191898,
        "network_id": 100055
    },
    {
        "id": 297,
        "country": "US",
        "state": "WA",
        "timezone": "America/Los_Angeles",
        "weather_network": "AgWeatherNet",
        "name": "Moody",
        "elevation": 1621,
        "lat": 47.2183533,
        "lng": -118.9898754,
        "network_id": 100070
    },
    {
        "id": 299,
        "country": "US",
        "state": "WA",
        "timezone": "America/Los_Angeles",
        "weather_network": "AgWeatherNet",
        "name": "Mount Vernon",
        "elevation": 16,
        "lat": 48.43926,
        "lng": -122.39108,
        "network_id": 100090
    },
    {
        "id": 302,
        "country": "US",
        "state": "WA",
        "timezone": "America/Los_Angeles",
        "weather_network": "AgWeatherNet",
        "name": "Peshastin.N",
        "elevation": 1217,
        "lat": 47.5943777,
        "lng": -120.6231165,
        "network_id": 100278
    },
    {
        "id": 303,
        "country": "US",
        "state": "WA",
        "timezone": "America/Los_Angeles",
        "weather_network": "AgWeatherNet",
        "name": "Pullman",
        "elevation": 2545,
        "lat": 46.694612,
        "lng": -117.146045,
        "network_id": 100093
    },
    {
        "id": 318,
        "country": "US",
        "state": "WA",
        "timezone": "America/Los_Angeles",
        "weather_network": "AgWeatherNet",
        "name": "Sunnyside",
        "elevation": 690,
        "lat": 46.291034,
        "lng": -120.01439,
        "network_id": 100092
    },
    {
        "id": 470,
        "country": "US",
        "state": "WA",
        "timezone": "America/Los_Angeles",
        "weather_network": "AgtiMet",
        "name": "George",
        "elevation": 350,
        "lat": 47.04388,
        "lng": -119.64222,
        "network_id": "GERW"
    },
    {
        "id": 472,
        "country": "US",
        "state": "WA",
        "timezone": "America/Los_Angeles",
        "weather_network": "AgtiMet",
        "name": "Harrah",
        "elevation": 259,
        "lat": 46.38472,
        "lng": -120.57444,
        "network_id": "HRHW"
    },
    {
        "id": 499,
        "country": "US",
        "state": "WA",
        "timezone": "America/Los_Angeles",
        "weather_network": "AgWeatherNet",
        "name": "Othello",
        "elevation": 1200,
        "lat": 46.789309,
        "lng": -119.043684,
        "network_id": 100298
    },
    {
        "id": 502,
        "country": "US",
        "state": "WA",
        "timezone": "America/Los_Angeles",
        "weather_network": "AgWeatherNet",
        "name": "Richland",
        "elevation": 379,
        "lat": 46.331196,
        "lng": -119.270158,
        "network_id": 100300
    },
    {
        "id": 504,
        "country": "US",
        "state": "WA",
        "timezone": "America/Los_Angeles",
        "weather_network": "AgWeatherNet",
        "name": "Sequim",
        "elevation": 138,
        "lat": 48.098604,
        "lng": -123.183775,
        "network_id": 100301
    },
    {
        "id": 511,
        "country": "US",
        "state": "WA",
        "timezone": "America/Los_Angeles",
        "weather_network": "AgWeatherNet",
        "name": "Vancouver",
        "elevation": 230,
        "lat": 45.677594,
        "lng": -122.651271,
        "network_id": 100295
    },
    {
        "id": 647,
        "country": "US",
        "state": "WA",
        "timezone": "America/Los_Angeles",
        "weather_network": "AgWeatherNet",
        "name": "Clallam Bay",
        "elevation": 53,
        "lat": 48.251282,
        "lng": -124.259869,
        "network_id": 100353
    },
    {
        "id": 651,
        "country": "US",
        "state": "WA",
        "timezone": "America/Los_Angeles",
        "weather_network": "AgWeatherNet",
        "name": "Friday Harbor",
        "elevation": 38,
        "lat": 48.505229,
        "lng": -123.055579,
        "network_id": 100330
    }
]
